{
  "Spain": [
    {
      "source_id": "osm-node-2618538581",
      "name": "Veggie Garden",
      "city": "Barcelona",
      "street": "Carrer dels Àngels",
      "housenumber": "3",
      "postcode": "08001",
      "phone": "+34 93 1802334",
      "website": null,
      "cuisine": "indian;nepalese",
      "opening_hours": "Mo-Su 12:30-23:30",
      "amenity": "restaurant",
      "lat": 41.3822767,
      "lon": 2.1680336
    },
    {
      "source_id": "osm-node-2665162709",
      "name": "Tasca Vegetariana Nehuen",
      "city": "València",
      "street": "Carrer del Crist del Grau",
      "housenumber": "14",
      "postcode": "46011",
      "phone": "+34 960 151440",
      "website": null,
      "cuisine": null,
      "opening_hours": null,
      "amenity": "restaurant",
      "lat": 39.4614781,
      "lon": -0.3343963
    },
    {
      "source_id": "osm-node-2665722353",
      "name": "Malmö",
      "city": "València",
      "street": "Carrer Sueca",
      "housenumber": "46",
      "postcode": null,
      "phone": "+34 963 285428",
      "website": "https://restaurantemalmo.com/",
      "cuisine": null,
      "opening_hours": "Mo-Th 13:30-16:00,20:30-23:30; Tu off; Fr,Sa 13:30-16:00,20:30-24:00; Su 13:30-16:00",
      "amenity": "restaurant",
      "lat": 39.4605726,
      "lon": -0.3746047
    },
    {
      "source_id": "osm-node-2665785217",
      "name": "Ana Eva",
      "city": "València",
      "street": "Carrer del Túria",
      "housenumber": "49",
      "postcode": "46008",
      "phone": "+34 963 91 53 69",
      "website": "https://restauranteanaeva.es",
      "cuisine": null,
      "opening_hours": "Th-Su 13:30-16:00,21:00-23:00",
      "amenity": "restaurant",
      "lat": 39.4768487,
      "lon": -0.3854877
    },
    {
      "source_id": "osm-node-2665809095",
      "name": "La Lluna",
      "city": null,
      "street": "Carrer de Sant Ramon",
      "housenumber": "23",
      "postcode": null,
      "phone": "+34 963 92 21 46",
      "website": "http://www.restaurantelalluna.es",
      "cuisine": null,
      "opening_hours": "Mo-Sa 09:00-17:00, 20:00-23:30",
      "amenity": "restaurant",
      "lat": 39.4782837,
      "lon": -0.3819732
    },
    {
      "source_id": "osm-node-2665832030",
      "name": "Sonka Plaza Restaurante",
      "city": null,
      "street": "Plaça Major",
      "housenumber": "6",
      "postcode": "46791",
      "phone": "+34 607 655 564",
      "website": null,
      "cuisine": null,
      "opening_hours": null,
      "amenity": "restaurant",
      "lat": 39.0530982,
      "lon": -0.3027177
    },
    {
      "source_id": "osm-node-3106875429",
      "name": "Veganoteca",
      "city": "Barcelona",
      "street": "Carrer de Valldonzella",
      "housenumber": "60",
      "postcode": "08001",
      "phone": "+34 933 18 67 76",
      "website": null,
      "cuisine": null,
      "opening_hours": "Mo-Sa 10:00-14:30, 17:00-21:00",
      "lat": 41.3828554,
      "lon": 2.1642185
    },
    {
      "source_id": "osm-node-4278033118",
      "name": "Enjoy Vegan",
      "city": "Barcelona",
      "street": "Plaça de Sant Agustí Vell",
      "housenumber": "10",
      "postcode": "08003",
      "phone": null,
      "website": "http://www.comidavegetarianabarcelona.com/",
      "cuisine": "tapas;pizza",
      "opening_hours": "Mo-Fr 11:00-23:30; Sa-Su 11:00-22:30",
      "amenity": "restaurant",
      "lat": 41.3881559,
      "lon": 2.1806616
    },
    {
      "source_id": "osm-node-4312496622",
      "name": "La Cuchara Sana",
      "city": null,
      "street": "Avenida Pintor Felo Monzon",
      "housenumber": "32",
      "postcode": null,
      "phone": null,
      "website": null,
      "cuisine": null,
      "opening_hours": null,
      "amenity": "restaurant",
      "lat": 28.1032699,
      "lon": -15.4531255
    },
    {
      "source_id": "osm-node-4312505967",
      "name": "Awa Viva - Biofood",
      "city": null,
      "street": "Calle El Salvador",
      "housenumber": "12",
      "postcode": null,
      "phone": null,
      "website": null,
      "cuisine": null,
      "opening_hours": null,
      "amenity": "cafe",
      "lat": 28.1311773,
      "lon": -15.4438574
    },
    {
      "source_id": "osm-node-4520526484",
      "name": "La Camelia",
      "city": null,
      "street": "Villarias kalea",
      "housenumber": "3",
      "postcode": null,
      "phone": null,
      "website": "https://www.lacameliaveganbar.com",
      "cuisine": "sushi;burger",
      "opening_hours": "Mo-Fr 09:00-22:00; Sa 10:30-23:00; Su 10:30-22:00",
      "amenity": "restaurant",
      "lat": 43.2615349,
      "lon": -2.9254184
    },
    {
      "source_id": "osm-node-4545563417",
      "name": "Saboro Comida Consciente",
      "city": "Castelló de la Plana",
      "street": "Carrer de José María Mulet Ortiz",
      "housenumber": "22",
      "postcode": null,
      "phone": null,
      "website": "https://www.happycow.net/reviews/saboro-comida-consciente-castellon-de-la-plana-228388",
      "cuisine": null,
      "opening_hours": null,
      "amenity": "restaurant",
      "lat": 39.9933346,
      "lon": -0.0624811
    },
    {
      "source_id": "osm-node-4699185075",
      "name": "Chillin' Cafe",
      "city": "Madrid",
      "street": "Calle de la Estrella",
      "housenumber": "5",
      "postcode": "28004",
      "phone": null,
      "website": null,
      "cuisine": "asian;coffee_shop",
      "opening_hours": null,
      "amenity": "cafe",
      "lat": 40.421993,
      "lon": -3.7061062
    },
    {
      "source_id": "osm-node-4709794456",
      "name": "Viva la Vida Veganamente",
      "city": "Bilbao",
      "street": "Goienkale",
      "housenumber": "17",
      "postcode": "48005",
      "phone": "+34944345307",
      "website": "https://vivalavidaveganamente.com/",
      "cuisine": null,
      "opening_hours": "Mo-Th,Sa 10:00-13:30",
      "amenity": "fast_food",
      "lat": 43.2562523,
      "lon": -2.922937
    },
    {
      "source_id": "osm-node-4723286965",
      "name": "La Regadera",
      "city": null,
      "street": "Carrer del Progrés",
      "housenumber": "23",
      "postcode": "46011",
      "phone": null,
      "website": null,
      "cuisine": null,
      "opening_hours": "Mo-Fr 14:00-16:30",
      "amenity": "restaurant",
      "lat": 39.4640975,
      "lon": -0.330555
    },
    {
      "source_id": "osm-node-4893341221",
      "name": "La Besnéta Pastelería Vegana",
      "city": "Barcelona",
      "street": "Carrer de Torrijos",
      "housenumber": "37",
      "postcode": "08012",
      "phone": "+34 934 15 38 39",
      "website": "https://labesneta.com/;https://www.labesneta.com",
      "cuisine": "cake",
      "opening_hours": "Tu-Su 10:30-21:00; Mo 10:30-15:00; Tu-Su 10:30-14:00,16:00-20:30",
      "lat": 41.4038734,
      "lon": 2.1582664
    },
    {
      "source_id": "osm-node-4971113721",
      "name": "Restaurante La Huella",
      "city": null,
      "street": "Calle del Empecinado",
      "housenumber": null,
      "postcode": null,
      "phone": null,
      "website": "http://urbanospecialtycoffe.es",
      "cuisine": null,
      "opening_hours": "Tu-Su 13:00-16:00,20:00-23:30; Mo off",
      "amenity": "restaurant",
      "lat": 40.4798242,
      "lon": -3.3679173
    },
    {
      "source_id": "osm-node-5053620425",
      "name": "La Golosa Vegan Vurger",
      "city": "Barcelona",
      "street": "Carrer del Torrent de l'Olla",
      "housenumber": "111",
      "postcode": "08012",
      "phone": null,
      "website": null,
      "cuisine": "burger",
      "opening_hours": "Mo off; Tu-Th 20:00-23:00; Fr 20:00-23:30; Sa 13:00-16:00,20:00-23:30; Su 13:00-16:00,20:00-23:00",
      "amenity": "restaurant",
      "lat": 41.4023753,
      "lon": 2.156805
    },
    {
      "source_id": "osm-node-5645377144",
      "name": "El Arao",
      "city": null,
      "street": "Calle Padre Marín",
      "housenumber": "20",
      "postcode": null,
      "phone": null,
      "website": null,
      "cuisine": null,
      "opening_hours": null,
      "amenity": "bar",
      "lat": 42.4655433,
      "lon": -2.4302651
    },
    {
      "source_id": "osm-node-5717702253",
      "name": "The Wala Room",
      "city": "Torremolinos",
      "street": "Calle la Toja",
      "housenumber": "1",
      "postcode": "29620",
      "phone": null,
      "website": null,
      "cuisine": null,
      "opening_hours": "We-Fr 19:30-23:00; Sa-Su 14:00-23:00",
      "amenity": "restaurant",
      "lat": 36.6426538,
      "lon": -4.4819603
    },
    {
      "source_id": "osm-node-6139722262",
      "name": "El sol veggie",
      "city": "Logroño",
      "street": "Calle Menéndez Pelayo",
      "housenumber": "11",
      "postcode": null,
      "phone": "+34 941 230692",
      "website": "https://www.solveggie.com",
      "cuisine": null,
      "opening_hours": "We-Sa 12:00-16:00,19:30-23:30; Su 12:00-16:00",
      "amenity": "restaurant",
      "lat": 42.4597008,
      "lon": -2.4481137
    },
    {
      "source_id": "osm-node-6341994618",
      "name": "La vegavana",
      "city": "Sils",
      "street": "Carrer dels Tallers",
      "housenumber": "6",
      "postcode": "17410",
      "phone": null,
      "website": "https://la-vegavana.webnode.es",
      "cuisine": null,
      "opening_hours": null,
      "lat": 41.8070399,
      "lon": 2.7497507
    },
    {
      "source_id": "osm-node-6440431085",
      "name": "Che Vegan Café",
      "city": "Madrid",
      "street": "Calle de Meléndez Valdés",
      "housenumber": "52",
      "postcode": "28015",
      "phone": "+34 614 236 459",
      "website": "https://chevegancafe.tilda.ws/",
      "cuisine": "brunch",
      "opening_hours": null,
      "amenity": "restaurant",
      "lat": 40.4331335,
      "lon": -3.7148494
    },
    {
      "source_id": "osm-node-6476672586",
      "name": "Entre Pedras",
      "city": null,
      "street": "Rúa do Hospitaliño",
      "housenumber": "7",
      "postcode": null,
      "phone": null,
      "website": "https://entrepedras.eu/",
      "cuisine": null,
      "opening_hours": "Mo-Th off; Fr-Su 13:00-17:00,19:30-24:00",
      "amenity": "restaurant",
      "lat": 42.8831938,
      "lon": -8.5427202
    },
    {
      "source_id": "osm-node-6690372562",
      "name": "Natura Gourmet",
      "city": null,
      "street": null,
      "housenumber": null,
      "postcode": null,
      "phone": "+34 965 03 78 88",
      "website": "https://www.restaurantenatura.online/",
      "cuisine": null,
      "opening_hours": null,
      "amenity": "restaurant",
      "lat": 38.3480089,
      "lon": -0.4870096
    },
    {
      "source_id": "osm-node-6760725919",
      "name": "Healthy Be Good",
      "city": null,
      "street": null,
      "housenumber": null,
      "postcode": null,
      "phone": null,
      "website": null,
      "cuisine": "international",
      "opening_hours": null,
      "amenity": "restaurant",
      "lat": 27.7615512,
      "lon": -15.5935021
    },
    {
      "source_id": "osm-node-6778834700",
      "name": "Lusco Fusco",
      "city": "Ourense",
      "street": "Libertad",
      "housenumber": "2-22",
      "postcode": null,
      "phone": null,
      "website": null,
      "cuisine": null,
      "opening_hours": null,
      "amenity": "restaurant",
      "lat": 42.3339874,
      "lon": -7.8631356
    },
    {
      "source_id": "osm-node-7129602896",
      "name": "A Cova dos Ratos",
      "city": null,
      "street": "Romil",
      "housenumber": "3, bajo",
      "postcode": null,
      "phone": "+34 986 06 97 00",
      "website": "https://covadosratos.wordpress.com/",
      "cuisine": "spanish;mediterranean",
      "opening_hours": null,
      "lat": 42.2338118,
      "lon": -8.729483
    },
    {
      "source_id": "osm-node-7772770550",
      "name": "Eqvilibrivm Café",
      "city": "Barcelona",
      "street": "Carrer de València",
      "housenumber": "352",
      "postcode": null,
      "phone": null,
      "website": null,
      "cuisine": null,
      "opening_hours": "09:00-15:30",
      "amenity": "restaurant",
      "lat": 41.3973065,
      "lon": 2.1697662
    },
    {
      "source_id": "osm-node-8308679519",
      "name": "Serendipity Valencia",
      "city": "València",
      "street": "Carrer d'Almassora",
      "housenumber": "48",
      "postcode": "46010",
      "phone": "+34 960 614892",
      "website": null,
      "cuisine": null,
      "opening_hours": "Tu-Sa 09:00-20:00; Su 09:00-16:00",
      "lat": 39.4849533,
      "lon": -0.3702308
    },
    {
      "source_id": "osm-node-9070831817",
      "name": "Vegan Junk Food Bar",
      "city": null,
      "street": "Carrer de Manresa",
      "housenumber": "4",
      "postcode": "08003",
      "phone": null,
      "website": "https://veganjunkfoodbar.com/",
      "cuisine": null,
      "opening_hours": "Mo-Su 12:00-01:00",
      "amenity": "restaurant",
      "lat": 41.3834485,
      "lon": 2.1803594
    },
    {
      "source_id": "osm-node-10574540128",
      "name": "Veganoteca",
      "city": null,
      "street": null,
      "housenumber": null,
      "postcode": null,
      "phone": null,
      "website": "https://serenitylapalma.org/home",
      "cuisine": null,
      "opening_hours": "Sa, Su 13:00-17:00",
      "amenity": "fast_food",
      "lat": 28.7244132,
      "lon": -17.9590733
    },
    {
      "source_id": "osm-node-10758418011",
      "name": "Vegan La Siria",
      "city": null,
      "street": "Calle Ancha del Carmen",
      "housenumber": "35",
      "postcode": "29002",
      "phone": "+34 711773986",
      "website": "https://vegan-te-la-siria.eatbu.com/",
      "cuisine": "syrian",
      "opening_hours": null,
      "amenity": "restaurant",
      "lat": 36.714381,
      "lon": -4.4285343
    },
    {
      "source_id": "osm-node-11021890460",
      "name": "Veggie Garden",
      "city": null,
      "street": "Gran Via de les Corts Catalanes",
      "housenumber": "602",
      "postcode": "08007",
      "phone": "+34 933 04 39 53",
      "website": null,
      "cuisine": "indian",
      "opening_hours": "Mo-Su 12:30-23:30",
      "amenity": "restaurant",
      "lat": 41.3867786,
      "lon": 2.1652521
    },
    {
      "source_id": "osm-node-11228091874",
      "name": "Wild Food BCN",
      "city": null,
      "street": "Avinguda Diagonal",
      "housenumber": "420",
      "postcode": null,
      "phone": "+34699875643",
      "website": "https://wildfood-plantbased.com/",
      "cuisine": null,
      "opening_hours": "Fr-Sa 10:00-00:00; Su-Th 10:00-23:00",
      "amenity": "restaurant",
      "lat": 41.397936,
      "lon": 2.1636759
    },
    {
      "source_id": "osm-node-11607245301",
      "name": "The VeggieLab",
      "city": null,
      "street": "Calle Molino de Viento",
      "housenumber": "9",
      "postcode": "28770",
      "phone": null,
      "website": "https://www.theveggielab.es",
      "cuisine": null,
      "opening_hours": null,
      "amenity": "restaurant",
      "lat": 40.6652861,
      "lon": -3.7710898
    },
    {
      "source_id": "osm-node-11935702025",
      "name": "A Flama",
      "city": null,
      "street": null,
      "housenumber": null,
      "postcode": null,
      "phone": null,
      "website": null,
      "cuisine": null,
      "opening_hours": "12:00-16:00,19:00-23:00",
      "amenity": "restaurant",
      "lat": 41.6711196,
      "lon": -0.8881603
    },
    {
      "source_id": "osm-node-12131424905",
      "name": "Primera Planta Green Kitchen",
      "city": null,
      "street": "Carrer del Carme",
      "housenumber": "8",
      "postcode": null,
      "phone": "+34 621 27 03 24",
      "website": "https://nuriasocial.org/cantina/",
      "cuisine": null,
      "opening_hours": "Mo-Fr 12:30-16:30",
      "amenity": "restaurant",
      "lat": 42.1829569,
      "lon": 2.4917569
    },
    {
      "source_id": "osm-node-13176611172",
      "name": "Oh my vegan",
      "city": null,
      "street": "Calle de Cobos de Segovia",
      "housenumber": "28",
      "postcode": null,
      "phone": "+34 911 467 157",
      "website": "https://ohmyvegan.es/",
      "cuisine": null,
      "opening_hours": null,
      "amenity": "restaurant",
      "lat": 40.4044821,
      "lon": -3.718989
    },
    {
      "source_id": "osm-node-13184793310",
      "name": "Fuga Madrid",
      "city": null,
      "street": "Calle de Valverde",
      "housenumber": "31",
      "postcode": null,
      "phone": null,
      "website": null,
      "cuisine": null,
      "opening_hours": "Tu-Su 11:00-17:00; Mo off",
      "amenity": "cafe",
      "lat": 40.4227677,
      "lon": -3.7017135
    },
    {
      "source_id": "osm-node-13798391790",
      "name": "Lo de Ponxe",
      "city": null,
      "street": null,
      "housenumber": null,
      "postcode": null,
      "phone": null,
      "website": null,
      "cuisine": null,
      "opening_hours": null,
      "amenity": "restaurant",
      "lat": 39.4750674,
      "lon": -0.3838049
    }
  ],
  "Italy": [
    {
      "source_id": "osm-node-1290442827",
      "name": "Flower Burger",
      "city": "Trento",
      "street": "Via Giuseppe Verdi",
      "housenumber": "19",
      "postcode": "38122",
      "phone": null,
      "website": "https://www.flowerburger.it/negozi/flower-burger-trento/",
      "cuisine": "burger",
      "opening_hours": "Mo-Su 12:00-15:00,19:00-22:00",
      "amenity": "fast_food",
      "lat": 46.0666025,
      "lon": 11.1178027
    },
    {
      "source_id": "osm-node-2361668204",
      "name": "Bioveggy",
      "city": "Firenze",
      "street": "Via Erbosa",
      "housenumber": "12",
      "postcode": "50126",
      "phone": null,
      "website": "http://www.bioveggy.it",
      "cuisine": null,
      "opening_hours": "Tu-Su 19:30-22:30",
      "amenity": "restaurant",
      "lat": 43.7619111,
      "lon": 11.2907729
    },
    {
      "source_id": "osm-node-3053506881",
      "name": "Lo Stregalbero",
      "city": "Novara",
      "street": "Via Giovanni Gnifetti",
      "housenumber": "15",
      "postcode": "28100",
      "phone": null,
      "website": null,
      "cuisine": "italian",
      "opening_hours": "Mo-Sa 12:00-14:30, 19:00-22:30",
      "amenity": "restaurant",
      "lat": 45.4505156,
      "lon": 8.613419
    },
    {
      "source_id": "osm-node-3392228626",
      "name": "Sali & Pistacchi",
      "city": "Domodossola",
      "street": "Piazza Mercato",
      "housenumber": "17",
      "postcode": "28845",
      "phone": null,
      "website": null,
      "cuisine": null,
      "opening_hours": "Mo-Sa 08:00-15:00",
      "amenity": "restaurant",
      "lat": 46.1161995,
      "lon": 8.2910918
    },
    {
      "source_id": "osm-node-3673371510",
      "name": "Yoo Restaurant",
      "city": "Pretola",
      "street": "Via Romagna",
      "housenumber": "2",
      "postcode": "06134",
      "phone": null,
      "website": null,
      "cuisine": null,
      "opening_hours": null,
      "lat": 43.1150183,
      "lon": 12.4394375
    },
    {
      "source_id": "osm-node-3957004123",
      "name": "Flower Burger",
      "city": "Milano",
      "street": "Viale Vittorio Veneto",
      "housenumber": "10",
      "postcode": "20124",
      "phone": null,
      "website": "https://www.flowerburger.it",
      "cuisine": "burger",
      "opening_hours": "Mo-Su 12:00-14:45, 19:00-22:15",
      "amenity": "fast_food",
      "lat": 45.4760295,
      "lon": 9.2026759
    },
    {
      "source_id": "osm-node-4378820191",
      "name": "Nanda’s Vegan Burgers & Cakes",
      "city": "Lucca",
      "street": "Piazza Venti Settembre",
      "housenumber": "9",
      "postcode": null,
      "phone": null,
      "website": null,
      "cuisine": "burger;cake",
      "opening_hours": null,
      "amenity": "fast_food",
      "lat": 43.8415521,
      "lon": 10.503198
    },
    {
      "source_id": "osm-node-4449663530",
      "name": "Gelateria Olive Dolci",
      "city": "Roma",
      "street": "Via Emanuele Filiberto",
      "housenumber": "140",
      "postcode": null,
      "phone": "+39 06 7005894",
      "website": null,
      "cuisine": null,
      "opening_hours": null,
      "amenity": "ice_cream",
      "lat": 41.8884939,
      "lon": 12.5078731
    },
    {
      "source_id": "osm-node-4523981816",
      "name": "La Gastronomia Veg",
      "city": "Torino",
      "street": "Via Dante Di Nanni",
      "housenumber": "116",
      "postcode": "10141",
      "phone": null,
      "website": "https://gastronomiaveg.it/",
      "cuisine": null,
      "opening_hours": null,
      "amenity": "restaurant",
      "lat": 45.0627755,
      "lon": 7.6475649
    },
    {
      "source_id": "osm-node-4719363593",
      "name": "Flower Burger",
      "city": null,
      "street": "Via dei Gracchi",
      "housenumber": "87",
      "postcode": "00192",
      "phone": null,
      "website": "https://www.flowerburger.it/negozi/flower-burger-roma-gracchi/",
      "cuisine": "burger",
      "opening_hours": "Mo-Su 12:00-15:30,19:00-22:30",
      "amenity": "fast_food",
      "lat": 41.9078063,
      "lon": 12.4621685
    },
    {
      "source_id": "osm-node-4736077761",
      "name": "Flower Burger",
      "city": null,
      "street": "Via Bertola",
      "housenumber": "29/C",
      "postcode": "10122",
      "phone": "+39 011 19019773;+39 328 00344924",
      "website": "https://www.flowerburger.it/",
      "cuisine": "burger",
      "opening_hours": "Mo-We 12:00-14:30,19:00-21:30; Th-Su 12:00-14:30,19:00-23:00",
      "amenity": "fast_food",
      "lat": 45.0711625,
      "lon": 7.6778844
    },
    {
      "source_id": "osm-node-4736111204",
      "name": "Chiodi Latini New Food",
      "city": null,
      "street": "Via San Quintino",
      "housenumber": "33c",
      "postcode": "10121",
      "phone": "+39 011 5623631",
      "website": "https://www.chiodilatininewfood.com/",
      "cuisine": null,
      "opening_hours": null,
      "amenity": "restaurant",
      "lat": 45.0669993,
      "lon": 7.6703086
    },
    {
      "source_id": "osm-node-5334460921",
      "name": "Flower Burger",
      "city": null,
      "street": "Corso Giuseppe Garibaldi",
      "housenumber": "34",
      "postcode": null,
      "phone": null,
      "website": "https://www.flowerburger.it",
      "cuisine": "burger",
      "opening_hours": "Mo-We 12:00-14:45,19:00-22:00; Th,Fr 12:00-14:45,19:00-22:30; Sa,Su 12:00-15:30,18:30-22:30",
      "amenity": "fast_food",
      "lat": 45.4740829,
      "lon": 9.1835987
    },
    {
      "source_id": "osm-node-5660576461",
      "name": "Flower Burger",
      "city": "Milano",
      "street": "Via Tortona",
      "housenumber": "12",
      "postcode": "20144",
      "phone": "+39 02 3946 9907",
      "website": "https://www.flowerburger.it/negozi/flower-burger-milano-tortona/",
      "cuisine": "burger",
      "opening_hours": "Mo-Th 12:30-14:45, 19:00-22:30; Fr 12:30-14:45, 19:00-23:00; Sa 12:15-15:30, 19:00-23:00; Su 12:30-15:00, 19:00-22:30",
      "amenity": "fast_food",
      "lat": 45.4538443,
      "lon": 9.168789
    },
    {
      "source_id": "osm-node-5762248358",
      "name": "iVegan",
      "city": null,
      "street": "Via Angelo Emo",
      "housenumber": "125",
      "postcode": "00136",
      "phone": "+39 06 86706868",
      "website": "https://ivegan.it/",
      "cuisine": null,
      "opening_hours": null,
      "amenity": "fast_food",
      "lat": 41.9036124,
      "lon": 12.4450432
    },
    {
      "source_id": "osm-node-5998275760",
      "name": "L'orto cafè",
      "city": null,
      "street": null,
      "housenumber": null,
      "postcode": null,
      "phone": null,
      "website": null,
      "cuisine": null,
      "opening_hours": "Mo-Fr 07:30-15:30; Sa 09:00-17:00",
      "amenity": "cafe",
      "lat": 45.0725809,
      "lon": 7.6771189
    },
    {
      "source_id": "osm-node-7383425207",
      "name": "Flower Burger",
      "city": "Bergamo",
      "street": "Via Torquato Tasso",
      "housenumber": "52-54-56",
      "postcode": "24100",
      "phone": null,
      "website": "https://www.flowerburger.it/negozi/flower-burger-bergamo-2/",
      "cuisine": "burger",
      "opening_hours": "Mo-Su 12:00-15:00,18:30-22:00",
      "amenity": "fast_food",
      "lat": 45.6977705,
      "lon": 9.6750785
    },
    {
      "source_id": "osm-node-7801307385",
      "name": "Agriturismo Surì",
      "city": "Cassine",
      "street": "Via della Chiesa",
      "housenumber": "3",
      "postcode": "15016",
      "phone": "+39 351 8652425",
      "website": "https://www.suri.it",
      "cuisine": null,
      "opening_hours": null,
      "amenity": "restaurant",
      "lat": 44.7220502,
      "lon": 8.5013369
    },
    {
      "source_id": "osm-node-7835854424",
      "name": "L'orto di Alice",
      "city": null,
      "street": null,
      "housenumber": null,
      "postcode": null,
      "phone": null,
      "website": "https://lorto-di-alice-vegan.eatbu.com/",
      "cuisine": null,
      "opening_hours": "Tu-Sa 19:00-22:00",
      "amenity": "restaurant",
      "lat": 45.0761861,
      "lon": 7.59218
    },
    {
      "source_id": "osm-node-7903114385",
      "name": "Flower Burger",
      "city": null,
      "street": "Via Riva di Reno",
      "housenumber": "118p",
      "postcode": null,
      "phone": null,
      "website": null,
      "cuisine": "burger",
      "opening_hours": "Mo-Su 12:00-15:00, 19:00-23:00",
      "amenity": "fast_food",
      "lat": 44.4988199,
      "lon": 11.3413356
    },
    {
      "source_id": "osm-node-8450317025",
      "name": "Flower Burger",
      "city": "Milano",
      "street": "Via Chiese",
      "housenumber": null,
      "postcode": "20126",
      "phone": null,
      "website": "https://www.flowerburger.it/negozi/flower-burger-milano-bicocca/",
      "cuisine": "burger",
      "opening_hours": "Mo-Th 12:00-15:00,19:00-22:30; Fr 12:00-15:00,19:00-23:00; Sa 12:00-15:00,18:00-23:00; Su 12:00-15:00,18:00-22:30",
      "amenity": "fast_food",
      "lat": 45.5221438,
      "lon": 9.2159994
    },
    {
      "source_id": "osm-node-9473605196",
      "name": "Flower Burger",
      "city": "Milano",
      "street": "Via Luigi Russolo",
      "housenumber": "5",
      "postcode": "20138",
      "phone": null,
      "website": null,
      "cuisine": "burger",
      "opening_hours": null,
      "amenity": "fast_food",
      "lat": 45.4339948,
      "lon": 9.2402042
    },
    {
      "source_id": "osm-node-9841221776",
      "name": "Flower Burger",
      "city": "Roma",
      "street": "Via Alessandria",
      "housenumber": "21",
      "postcode": "00198",
      "phone": null,
      "website": "https://www.flowerburger.it/negozi/flower-burger-roma-alessandria/",
      "cuisine": "burger",
      "opening_hours": "Mo-Fr 12:30-15:00, 19:00-22:30; Sa, Su 12:30-15:00, 19:00-23:00",
      "amenity": "fast_food",
      "lat": 41.9107278,
      "lon": 12.5005901
    },
    {
      "source_id": "osm-node-11029886214",
      "name": "Flower Burger",
      "city": "Bari",
      "street": "Via Principe Amedeo",
      "housenumber": "121",
      "postcode": "70122",
      "phone": null,
      "website": "https://flowerburger.it",
      "cuisine": "burger",
      "opening_hours": "Mo-Fr,Su 12:30-15:00, 19:30-23:00; Sa 12:30-15:00, 19:30-00:00",
      "amenity": "fast_food",
      "lat": 41.1226285,
      "lon": 16.8671185
    },
    {
      "source_id": "osm-node-11169829067",
      "name": "Flower Burger",
      "city": null,
      "street": null,
      "housenumber": null,
      "postcode": null,
      "phone": null,
      "website": null,
      "cuisine": "burger",
      "opening_hours": null,
      "amenity": "fast_food",
      "lat": 45.5823551,
      "lon": 9.2728492
    },
    {
      "source_id": "osm-node-11811431398",
      "name": "Flower Burger",
      "city": null,
      "street": "Via Isidoro La Lumia",
      "housenumber": "3",
      "postcode": null,
      "phone": "+39 091 507 6085",
      "website": "https://www.flowerburger.it/negozi/flower-burger-palermo-2/",
      "cuisine": "burger",
      "opening_hours": null,
      "amenity": "fast_food",
      "lat": 38.126088,
      "lon": 13.3568857
    },
    {
      "source_id": "osm-node-11991744212",
      "name": "Flower Burger",
      "city": null,
      "street": "Via Trento",
      "housenumber": "16",
      "postcode": null,
      "phone": "+390852016011",
      "website": "https://www.flowerburger.it/",
      "cuisine": "burger",
      "opening_hours": null,
      "amenity": "fast_food",
      "lat": 42.4699388,
      "lon": 14.2072362
    },
    {
      "source_id": "osm-node-12093797101",
      "name": "E'den",
      "city": "Torino",
      "street": "Via San Quintino",
      "housenumber": "8H",
      "postcode": null,
      "phone": null,
      "website": null,
      "cuisine": "italian",
      "opening_hours": "Mo-Fr 10:00-14:30; Sa off; Su[1], Su[3] 09:30-14:30; ",
      "amenity": "restaurant",
      "lat": 45.0650356,
      "lon": 7.6761635
    },
    {
      "source_id": "osm-node-12844877210",
      "name": "Hirondelle Locanda",
      "city": null,
      "street": null,
      "housenumber": null,
      "postcode": null,
      "phone": null,
      "website": "https://www.hirondelle.host/",
      "cuisine": null,
      "opening_hours": null,
      "lat": 45.7510608,
      "lon": 7.3035253
    }
  ]
}