{"name":"Kuli Alma","city":"Frankfurt","country":"Germany","vegan_level":"fully_vegan","address":"Zum-Jungen-Straße 10, 60320, Frankfurt, Germany","latitude":50.1401627,"longitude":8.683157,"website":"https://www.kuli-alma.com/","phone":"+49 69 56005506","cuisine_types":["israeli"],"opening_hours":"Mo-Sa 12:00-23:00; Su 12:00-22:00; PH off","notes":"OSM diet:vegan=only (node 413110332) [Q3 retry]","ok":true,"url":"https://www.plantspack.com/place/kuli-alma-frankfurt"}
{"name":"Hummus Küch'","city":"Frankfurt","country":"Germany","vegan_level":"fully_vegan","address":"Textorstraße 38, 60594, Frankfurt, Germany","latitude":50.1018051,"longitude":8.686763,"website":"https://www.ihummus.de/","phone":"+49 69 622299","cuisine_types":["israeli"],"opening_hours":"Mo-Sa 12:00-21:00; Su 13:00-20:00; PH off","notes":"OSM diet:vegan=only (node 1046441975) [Q3 retry]","ok":true,"url":"https://www.plantspack.com/place/hummus-kuch-frankfurt"}
{"name":"Savory","city":"Frankfurt","country":"Germany","vegan_level":"fully_vegan","address":"Burgfriedenstraße 2, 60489, Frankfurt, Germany","latitude":50.1251775,"longitude":8.6121738,"website":"https://www.savory-thevegtory.de","opening_hours":"We,Th 16:00-21:00; Fr-Su 12:30-21:00","notes":"OSM diet:vegan=only (node 2294693961) [Q3 retry]","ok":true,"url":"https://www.plantspack.com/place/savory-frankfurt"}
{"name":"Dominion Food Revolution","city":"Frankfurt","country":"Germany","vegan_level":"fully_vegan","address":"Grüneburgweg 41-43, 60322, Frankfurt, Germany","latitude":50.1213061,"longitude":8.6708494,"website":"https://dominionfood.de","phone":"+49 69 76021769","cuisine_types":["arab","burger","israeli"],"opening_hours":"Su-Th 11:30-21:00; Fr-Sa 11:30-21:30","notes":"OSM diet:vegan=only (node 2970680800) [Q3 retry]","ok":true,"url":"https://www.plantspack.com/place/dominion-food-revolution-frankfurt"}
{"name":"Motek","city":"Frankfurt","country":"Germany","vegan_level":"fully_vegan","address":"Hanauer Landstraße 134, 60314, Frankfurt, Germany","latitude":50.1114264,"longitude":8.7125364,"website":"https://motekfrankfurt.de/","phone":"+49 69 71419614","opening_hours":"Mo-Th 11:30-14:30,17:30-23:00; Fr-Su 11:30-23:00","notes":"OSM diet:vegan=only (node 5938875149) [Q3 retry]","ok":true,"url":"https://www.plantspack.com/place/motek-frankfurt"}
{"name":"Die vegane Fleischerei","city":"Frankfurt","country":"Germany","vegan_level":"fully_vegan","address":"Leipziger Straße 49, Frankfurt, Germany","latitude":50.1225466,"longitude":8.6455902,"website":"https://vegane-fleischerei.de/pages/standorte-frankfurt","opening_hours":"Mo-Sa 11:30-20:00","notes":"OSM diet:vegan=only (node 9880942504) [Q3 retry]","ok":true,"url":"https://www.plantspack.com/place/die-vegane-fleischerei-frankfurt"}
{"name":"Life Deli","city":"Frankfurt","country":"Germany","vegan_level":"fully_vegan","address":"Bertha-Pappenheim-Platz 1, 60311, Frankfurt, Germany","latitude":50.107329,"longitude":8.6739898,"website":"https://life-deli.de/","phone":"+49 69 27 22 06 60","opening_hours":"Tu-We,Su 10:00-18:00; Th-Sa 10:00-22:00","notes":"OSM diet:vegan=only (node 12229577101) [Q3 retry]","ok":true,"url":"https://www.plantspack.com/place/life-deli-frankfurt"}
{"name":"269 TwoSixNine Vegan Restaurant Frankfurt","city":"Frankfurt","country":"Germany","vegan_level":"fully_vegan","address":"Mendelssohnstraße 44, 60325, Frankfurt, Germany","latitude":50.114493,"longitude":8.6574266,"website":"https://269frankfurt.de/","phone":"+49 69 85097596","cuisine_types":["salad","dessert","italian","german","israeli"],"opening_hours":"Mo-Su 12:00-23:00","notes":"OSM diet:vegan=only (node 12385989701) [Q3 retry]","ok":true,"url":"https://www.plantspack.com/place/269-twosixnine-vegan-restaurant-frankfurt-frankfurt"}
{"name":"StreetFood 269","city":"Frankfurt","country":"Germany","vegan_level":"fully_vegan","address":"Eschersheimer Landstraße 532, 60433, Frankfurt, Germany","latitude":50.1557329,"longitude":8.6582837,"website":"https://streetfood269.de/","phone":"+49 69 67808678","opening_hours":"Mo-Su 11:30-20:00","notes":"OSM diet:vegan=only (node 12480432302) [Q3 retry]","ok":true,"url":"https://www.plantspack.com/place/streetfood-269-frankfurt"}
{"name":"Veganland","city":"Troisdorf","country":"Germany","vegan_level":"fully_vegan","address":"Kölner Straße 33a, 53840, Troisdorf, Germany","latitude":50.8142314,"longitude":7.1604682,"website":"https://veganland24.de/filialen/veganland-troisdorf","phone":"+49 176 60336792","notes":"OSM diet:vegan=only (node 9288382281) [Q3 retry]","ok":false}
{"name":"Onkel Ha Vegan","city":"Mülheim-Kärlich","country":"Germany","vegan_level":"fully_vegan","address":"Kurfürstenstraße 23, 56218, Mülheim-Kärlich, Germany","latitude":50.3880928,"longitude":7.4978319,"website":"https://onkelha-vegan.de","phone":"+49 2630 9669761","opening_hours":"Tu-Th,Su 12:00–21:00; Fr-Sa 12:00–22:00","notes":"OSM diet:vegan=only (node 13326780980) [Q3 retry]","ok":false}
{"name":"Steinhaus 1718","city":"Büdingen","country":"Germany","vegan_level":"fully_vegan","address":"Schloßgasse 14, 63654, Büdingen, Germany","latitude":50.2915117,"longitude":9.1183197,"website":"https://steinhaus1718.de","cuisine_types":["regional"],"opening_hours":"We-Fr 17:00-21:00; Sa 17:00-22:00; Su 10:00-14:30,16:30-20:00","notes":"OSM diet:vegan=only (node 1070323678) [Q3 retry]","ok":false}
{"name":"mood:9","city":"Gießen","country":"Germany","vegan_level":"fully_vegan","address":"Reichensand 9, 35390, Gießen, Germany","latitude":50.5838965,"longitude":8.6711308,"phone":"+49 1575 1715645","cuisine_types":["sandwich","cake"],"opening_hours":"Tu-Su 10:00-18:30","notes":"OSM diet:vegan=only (node 4059610336) [Q3 retry]","ok":false}
{"name":"Veganatural","city":"Gießen","country":"Germany","vegan_level":"fully_vegan","address":"Schiffenberger Weg 27, 35394, Gießen, Germany","latitude":50.5763585,"longitude":8.6828445,"website":"https://veganatural.de","phone":"+49 641 39929434","cuisine_types":["burger","sandwich","crepes","soup","ice_cream","smoothie"],"opening_hours":"Tu-Sa 12:00-20:00","notes":"OSM diet:vegan=only (node 5773428454) [Q3 retry]","ok":true,"url":"https://www.plantspack.com/place/veganatural-gie-en"}
